"Row","NERR.Site.ID","Station.Code","Station.Name","Latitude","Longitude","Status","Active.Dates","State","Reserve.Name","Real.Time","HADS.ID","GMT.Offset","Station.Type","Region","isSWMP"
1,"ace","acebbnut","Big Bay",32.4941,80.3241,"Inactive","Feb 2002-Dec 2014","sc","Ashepoo Combahee Edisto Basin","","",-5,2,2,"P"
2,"ace","acebbwq","Big Bay",32.4941,80.3241,"Inactive","Mar 1995-Dec 2014","sc","Ashepoo Combahee Edisto Basin","","",-5,1,2,"P"
3,"ace","acebpmet","Bennett's Point",32.559344,80.454558,"Active","Mar 2001-","sc","Ashepoo Combahee Edisto Basin","R","3B01E672",-5,0,2,"P"
4,"ace","acefcnut","Fishing Creek",32.6358,80.3655,"Active","Mar 2002 -","sc","Ashepoo Combahee Edisto Basin","","",-5,2,2,"P"
5,"ace","acefcwq","Fishing Creek",32.6358,80.3655,"Active","Oct 2002-","sc","Ashepoo Combahee Edisto Basin","","",-5,1,2,"P"
6,"ace","acemcnut","Mosquito Creek",32.5558,80.438,"Active","Mar 2002-","sc","Ashepoo Combahee Edisto Basin","","",-5,2,2,"P"
7,"ace","acemcwq","Mosquito Creek",32.5558,80.438,"Active","Oct 2002-","sc","Ashepoo Combahee Edisto Basin","","",-5,1,2,"P"
8,"ace","acercwq","Rock Creek",32.5485,80.5036,"Inactive","Mar 1996-May 1996","sc","Ashepoo Combahee Edisto Basin","","",-5,1,2,"P"
9,"ace","acespnut","St. Pierre",32.5279,80.3615,"Active","Jan 2002-","sc","Ashepoo Combahee Edisto Basin","","",-5,2,2,"P"
10,"ace","acespwq","St. Pierre",32.5279,80.3615,"Active","Mar 1995-","sc","Ashepoo Combahee Edisto Basin","R","3B02F20A",-5,1,2,"P"
425,"ace","aceeiwq","Edisto Island",32.50399,80.3247,"Active","Jan 2015-","sc","Ashepoo Combahee Edisto Basin","","",-5,1,2,"P"
426,"ace","aceeinut","Edisto Island",32.50399,80.3247,"Active","Jan 2015-","sc","Ashepoo Combahee Edisto Basin","","",-5,2,2,"P"
436,"ace","acegpwq","Grove Plantation",32.6637,80.413,"Active","Jan 2015","sc","Ashepoo Combahee Edisto Basin","R","3B04B1CE",-5,1,2,"S"
437,"ace","acejiwq","Jehossee Island",32.6209,80.3965,"Active","Jan 2015","sc","Ashepoo Combahee Edisto Basin","","",-5,1,2,"S"
478,"apa","apapcwq","Pilots Cove",29.601,85.0277,"Active","Jan 2017-","fl","Apalachicola Bay","","",-5,1,4,"S"
479,"apa","apalmwq","Little St Marks River",29.755689,85.003525,"Active","Jan 2017-","fl","Apalachicola Bay","","",-5,1,4,"S"
11,"apa","apacpnut","Cat Point",29.7021,84.8802,"Active","Apr 2002-","fl","Apalachicola Bay","","",-5,2,4,"P"
12,"apa","apacpwq","Cat Point",29.7021,84.8802,"Active","Jan 2002-","fl","Apalachicola Bay","","",-5,1,4,"P"
13,"apa","apadbnut","Dry Bar",29.6747,85.0583,"Active","Apr 2002-","fl","Apalachicola Bay","","",-5,2,4,"P"
14,"apa","apadbwq","Dry Bar",29.6747,85.0583,"Active","Jan 2002-","fl","Apalachicola Bay","","",-5,1,4,"P"
15,"apa","apaebmet","East Bay",29.7909,84.8834,"Active","Jan 2001-","fl","Apalachicola Bay","R","3B01C09E",-5,0,4,"P"
16,"apa","apaebnut","East Bay Bottom",29.7858,84.8752,"Active","Apr 2002-","fl","Apalachicola Bay","","",-5,2,4,"P"
17,"apa","apaebwq","East Bay Bottom",29.7858,84.8752,"Active","May 1995-","fl","Apalachicola Bay","R","3B02D4E6",-5,1,4,"P"
18,"apa","apaegnut","East Bay Bridge",29.7308,84.9452,"Active","Apr 2002-","fl","Apalachicola Bay","","",-5,2,4,"S"
19,"apa","apaesnut","East Bay Surface",29.7858,84.8752,"Active","Apr 2002-","fl","Apalachicola Bay","","",-5,2,4,"P"
20,"apa","apaeswq","East Bay Surface",29.7858,84.8752,"Active","Apr 1995-","fl","Apalachicola Bay","","",-5,1,4,"P"
21,"apa","apambnut","Mid Bay",29.6677,84.994,"Active","Apr 2002-","fl","Apalachicola Bay","","",-5,2,4,"S"
22,"apa","apanhnut","Nicks Hole",29.6504,84.9289,"Active","Apr 2002-","fl","Apalachicola Bay","","",-5,2,4,"S"
23,"apa","apapcnut","Pilots Cove",29.6079,85.0196,"Active","Apr 2002-","fl","Apalachicola Bay","","",-5,2,4,"S"
24,"apa","aparvnut","River",29.7791,85.0434,"Active","Apr 2002-","fl","Apalachicola Bay","","",-5,2,4,"S"
25,"apa","apascnut","Sikes Cut",29.6067,84.9467,"Active","Apr 2002-","fl","Apalachicola Bay","","",-5,2,4,"S"
26,"apa","apawpnut","West Pass",29.6379,85.089,"Active","Apr 2002-","fl","Apalachicola Bay","","",-5,2,4,"S"
27,"cbm","cbmipnut","Iron Pot Landing",38.796,76.7208,"Active","Apr 2003-","md","Chesapeake Bay","","",-5,2,1,"P"
28,"cbm","cbmipwq","Iron Pot Landing",38.796,76.7208,"Active","Apr 2003-","md","Chesapeake Bay","","",-5,1,1,"P"
29,"cbm","cbmjbmet","Jug Bay",38.7807667,76.7082,"Active","Jul 2003-","md","Chesapeake Bay","R","3B0071EA",-5,0,1,"P"
30,"cbm","cbmjbwq","Jug Bay",38.7792,76.7077,"Inactive","Jul 1995-Dec 2002","md","Chesapeake Bay","","",-5,1,1,"P"
31,"cbm","cbmmcnut","Mataponi Creek",38.7433,76.7074,"Active","Apr 2003-","md","Chesapeake Bay","","",-5,2,1,"P"
32,"cbm","cbmmcwq","Mataponi Creek",38.7433,76.7074,"Active","Apr 2003-","md","Chesapeake Bay","","",-5,1,1,"P"
33,"cbm","cbmocnut","Otter Point Creek",39.4507,76.2746,"Active","Apr 2003-","md","Chesapeake Bay","","",-5,2,1,"P"
34,"cbm","cbmocwq","Otter Point Creek",39.4507,76.2746,"Active","Apr 2003-","md","Chesapeake Bay","R","3B03D61C",-5,1,1,"P"
35,"cbm","cbmprwq","Patuxent River",38.7732,76.7091,"Inactive","Jul 1995-Dec 2002","md","Chesapeake Bay","","",-5,1,1,"P"
36,"cbm","cbmrrnut","Railroad",38.7813,76.7137,"Active","Apr 2003-","md","Chesapeake Bay","","",-5,2,1,"P"
37,"cbm","cbmrrwq","Railroad",38.7813,76.7137,"Active","Apr 2003-","md","Chesapeake Bay","R","3B00629C",-5,1,1,"P"
38,"cbv","cbvcbnut","Claybank",37.346665,76.611263,"Active","Jan 2002-","va","Chesapeake Bay","","",-5,2,1,"P"
39,"cbv","cbvcbwq","Claybank",37.346665,76.611263,"Active","Jan 2002-","va","Chesapeake Bay","","",-5,1,1,"P"
40,"cbv","cbvcinut","Catlett Islands",37.3,76.55,"Active","Jan 2002-","va","Chesapeake Bay","","",-5,2,1,"S"
41,"cbv","cbvginut","Goodwin Islands",37.215796,76.392675,"Active","Jan 2002-","va","Chesapeake Bay","","",-5,2,1,"P"
42,"cbv","cbvgiwq","Goodwin Islands",37.215796,76.392675,"Active","Oct 1997-","va","Chesapeake Bay","","",-5,1,1,"P"
43,"cbv","cbvshnut","Sweethall",37.57138,76.88424,"Active","Jan 2002-","va","Chesapeake Bay","","",-5,2,1,"P"
44,"cbv","cbvshwq","Sweethall",37.57138,76.88424,"Active","Jan 2002-","va","Chesapeake Bay","R","3B03B3FA",-5,1,1,"P"
45,"cbv","cbvtcmet","Taskinas Creek",37.4141,76.71237,"Active","Jan 2001-","va","Chesapeake Bay","R","3B009218",-5,0,1,"P"
46,"cbv","cbvtcnut","Taskinas Creek",37.414986,76.71442,"Active","Jan 2002-","va","Chesapeake Bay","","",-5,2,1,"P"
47,"cbv","cbvtcwq","Taskinas Creek",37.414986,76.71442,"Active","Sep 1995-","va","Chesapeake Bay","","",-5,1,1,"P"
48,"cbv","cbvybnut","York River Bridge",37.2449,76.5052,"Active","Jan 2002-","va","Chesapeake Bay","","",-5,2,1,"S"
49,"del","delbbnut","Beaver Branch",39.4024,75.628,"Active","Feb 2002","de","Delaware","","",-5,2,1,"S"
50,"del","delblnut","Blackbird Landing",39.38876,75.636,"Active","Jan 2002","de","Delaware","","",-5,2,1,"P"
51,"del","delblwq","Blackbird Landing",39.38876,75.636,"Active","Aug 1995-","de","Delaware","","",-5,1,1,"P"
52,"del","deldsnut","Division Street",39.1637,75.5191,"Active","Jan 2002","de","Delaware","","",-5,2,1,"P"
53,"del","deldswq","Division Street",39.1637,75.5191,"Active","Jan 2002-","de","Delaware","","",-5,1,1,"P"
54,"del","delllnut","Lebanon Landing",39.1144,75.4992,"Active","Jan 2002","de","Delaware","","",-5,2,1,"P"
55,"del","delllwq","Lebanon Landing",39.1144,75.4992,"Active","Jan 2002-","de","Delaware","","",-5,1,1,"P"
56,"del","delpbwq","Penrose Branch",39.1647,75.6504,"Inactive","Jun 1996-Dec 2001","de","Delaware","","",-5,1,1,"P"
57,"del","delsjmet","Saint Jones River",39.0889028,75.4368833,"Active","Jan 2001-","de","Delaware","R","3B00F7FE",-5,0,1,"P"
58,"del","delslnut","Scotton Landing",39.08498,75.46058,"Active","Jan 2002","de","Delaware","","",-5,2,1,"P"
59,"del","delslwq","Scotton Landing",39.08498,75.46058,"Active","Jul 1995-","de","Delaware","R","3B00E488",-5,1,1,"P"
340,"del","deltbnut","Taylor's Bridge",39.4049,75.5996,"Active","Jan 2007-","de","Delaware","","",-5,2,1,"S"
60,"elk","elkapnut","Azevedo Pond",36.8457,121.7538,"Active","Apr 2002-","ca","Elkhorn Slough","","",-8,2,6,"P"
61,"elk","elkapwq","Azevedo Pond",36.8457,121.7538,"Active","Jun 1995-","ca","Elkhorn Slough","R","3B053520",-8,1,6,"P"
62,"elk","elkcwmet","Caspian Weather Station",36.8154361,121.7381444,"Active","Jan 2001-","ca","Elkhorn Slough","R","3B0155FC",-8,0,6,"P"
63,"elk","elknmnut","North Marsh",36.8346,121.7384,"Active","Apr 2002-","ca","Elkhorn Slough","","",-8,2,6,"P"
64,"elk","elknmwq","North Marsh",36.8346,121.7384,"Active","Apr 1999-","ca","Elkhorn Slough","","",-8,1,6,"P"
65,"elk","elksmnut","South Marsh",36.8179,121.7394,"Active","Apr 2002-","ca","Elkhorn Slough","","",-8,2,6,"P"
66,"elk","elksmwq","South Marsh",36.8179,121.7394,"Active","Jun 1995-","ca","Elkhorn Slough","R","3B026768",-8,1,6,"P"
67,"elk","elkvmnut","Vierra Mouth",36.8111,121.7792,"Active","Apr 2002-","ca","Elkhorn Slough","","",-8,2,6,"P"
68,"elk","elkvmwq","Vierra Mouth",36.8111,121.7792,"Active","Mar 2001-","ca","Elkhorn Slough","R","3B04D428",-8,1,6,"P"
69,"gnd","gndbcwq","Bayou Cumbest",30.3836,88.4364,"Active","Mar 2004-","ms","Grand Bay","","",-6,1,4,"P"
70,"gnd","gndbhwq","Bayou Heron",30.4178,88.4054,"Active","Jan 2004-","ms","Grand Bay","R","3B006C4E",-6,1,4,"P"
71,"gnd","gndblwq","Bangs Lake",30.3571,88.4629,"Active","Mar 2004-","ms","Grand Bay","R","3B007F38",-6,1,4,"P"
72,"gnd","gndcrwq","Crooked Bayou",30.3599,88.419,"Inactive","Jan 2004-May 2004; Aug 2004-Aug 2005","ms","Grand Bay","","",-6,1,4,"P"
283,"gnd","gndbhnut","Bayou Heron",30.4178,88.4054,"Active","Feb 2005","ms","Grand Bay","","",-6,2,4,"P"
284,"gnd","gndcrnut","Crooked Bayou",30.3591,88.42,"Inactive","Feb 2005 - July 2005","ms","Grand Bay","","",-6,2,4,"P"
285,"gnd","gndpcnut","Point Aux Chenes",30.3486,88.4185,"Active","Feb 2005","ms","Grand Bay","","",-6,2,4,"P"
286,"gnd","gndbcnut","Bayou Cumbest",30.3836,88.4364,"Active","Feb 2005","ms","Grand Bay","","",-6,2,4,"P"
287,"gnd","gndblnut","Bangs Lake",30.3571,88.4629,"Active","Feb 2005","ms","Grand Bay","","",-6,2,4,"P"
288,"gnd","gndbnnut","Bangs Lake North",30.3669,88.471,"Active","Feb 2005","ms","Grand Bay","","",-6,2,4,"S"
276,"gnd","gndpcwq","Point Aux Chenes Bay",30.3486,88.4185,"Active","Aug 2005-","ms","Grand Bay","","",-6,1,4,"P"
277,"gnd","gndcrmet","Crooked Bayou",30.3592,88.42,"Active","Aug 2004-","ms","Grand Bay","R","3B0190E2",-6,0,4,"P"
474,"gnd","gndhsnut","Bayou Heron Surface",30.4178,88.4054,"Active","Feb 2005-","ms","Grand Bay","","",-6,2,4,"S"
281,"grb","grbglmet","Greenland",43.058768,70.830383,"Active","Oct 2005-","nh","Great Bay","R","3B023714",-5,0,0,"P"
73,"grb","grbgbmet","Great Bay",43.0921,70.8642,"Inactive","Jul 2001-Oct 2005","nh","Great Bay","","",-5,0,0,"P"
74,"grb","grbgbnut","Great Bay",43.0722,70.8694,"Active","Apr 2002-","nh","Great Bay","","",-5,2,0,"P"
75,"grb","grbgbwq","Great Bay",43.0722,70.8694,"Active","Jul 1995-","nh","Great Bay","R","HTML9",-5,1,0,"P"
76,"grb","grblrnut","Lamprey River",43.08,70.9344,"Active","Apr 2002-","nh","Great Bay","","",-5,2,0,"P"
77,"grb","grblrwq","Lamprey River",43.08,70.9344,"Active","Oct 1998-","nh","Great Bay","R","HTML10",-5,1,0,"P"
78,"grb","grbornut","Oyster River",43.134,70.911,"Active","May 2002-","nh","Great Bay","","",-5,2,0,"P"
79,"grb","grborwq","Oyster River",43.134,70.911,"Active","Apr 2002-","nh","Great Bay","R","3B03437E",-5,1,0,"P"
80,"grb","grbsqnut","Squamscott River",43.052403,70.911811,"Active","Apr 2002-","nh","Great Bay","","",-5,2,0,"P"
81,"grb","grbsqwq","Squamscott River",43.052403,70.911811,"Active","Jul 1997-","nh","Great Bay","R","HTML11",-5,1,0,"P"
82,"gtm","gtmfmnut","Fort Matanzas",29.737041,81.245953,"Active","May 2002-","fl","Guana Tolomato Mantanzas","","",-5,2,2,"P"
83,"gtm","gtmfmwq","Fort Matanzas",29.737041,81.245953,"Active","Jan 2001-","fl","Guana Tolomato Mantanzas","","",-5,1,2,"P"
84,"gtm","gtmpcmet","Pellicer Creek",29.657702,81.232743,"Active","Sep 2002-","fl","Guana Tolomato Mantanzas","R","3B01B60E",-5,0,2,"P"
85,"gtm","gtmpcnut","Pellicer Creek",29.667071,81.257403,"Active","May 2002-","fl","Guana Tolomato Mantanzas","","",-5,2,2,"P"
86,"gtm","gtmpcwq","Pellicer Creek",29.667071,81.257403,"Active","Feb 2002-","fl","Guana Tolomato Mantanzas","R","3B02C790",-5,1,2,"P"
87,"gtm","gtmpinut","Pine Island",30.050857,81.367465,"Active","May 2002-","fl","Guana Tolomato Mantanzas","","",-5,2,2,"P"
88,"gtm","gtmpiwq","Pine Island",30.050857,81.367465,"Active","Jan 2001-","fl","Guana Tolomato Mantanzas","","",-5,1,2,"P"
89,"gtm","gtmssnut","San Sebastian",29.868851,81.307428,"Active","May 2002-","fl","Guana Tolomato Mantanzas","","",-5,2,2,"P"
90,"gtm","gtmsswq","San Sebastian",29.868851,81.307428,"Active","Feb 2002-","fl","Guana Tolomato Mantanzas","","",-5,1,2,"P"
91,"hud","hudfsmet","Field Station",42.0182,73.917,"Active","Jan 2001-","ny","Hudson River","R","3B00B4F4",-5,0,0,"P"
92,"hud","hudscnut","Stony Creek",42.0463,73.9108,"Active","Feb 2002-","ny","Hudson River","","",-5,2,0,"P"
93,"hud","hudscwq","Stony Creek",42.0463,73.9108,"Active","Apr 2002-","ny","Hudson River","R","3B03A08C",-5,1,0,"P"
94,"hud","hudsknut","Saw Kill",42.0171722,73.9149611,"Active","Feb 2002-","ny","Hudson River","","",-5,2,0,"P"
95,"hud","hudskwq","Saw Kill",42.0171722,73.9149611,"Active","May 1995-","ny","Hudson River","R","3B010580",-5,1,0,"P"
96,"hud","hudtnnut","Tivoli North Bay",42.0365457,73.925324,"Active","Feb 2002-","ny","Hudson River","","",-5,2,0,"P"
97,"hud","hudtnwq","Tivoli North Bay",42.0365457,73.925324,"Active","Jul 1996-Dec 1996; Jul 1999-","ny","Hudson River","R","3B0550C6",-5,1,0,"P"
98,"hud","hudtsnut","Tivoli South Bay",42.0270378,73.9259569,"Active","Feb 2002-","ny","Hudson River","","",-5,2,0,"P"
99,"hud","hudtswq","Tivoli South Bay",42.0270378,73.9259569,"Active","May 1995-","ny","Hudson River","R","3B00A782",-5,1,0,"P"
127,"jac","jacb5nut","Buoy 115",39.5188,74.2872,"Active","Feb 2002-","nj","Jacques Cousteau","","",-5,2,1,"S"
128,"jac","jacb6nut","Buoy 126",39.5079,74.3385,"Active","Feb 2002-","nj","Jacques Cousteau","","",-5,2,1,"P"
129,"jac","jacb6wq","Buoy 126",39.5079,74.3385,"Active","Aug 1996-","nj","Jacques Cousteau","R","3B00C264",-5,1,1,"P"
130,"jac","jacb9nut","Buoy 139",39.4902,74.3816,"Active","Feb 2002-","nj","Jacques Cousteau","","",-5,2,1,"P"
131,"jac","jacb9wq","Buoy 139",39.4902,74.3816,"Active","Aug 1996-Dec 1998; May 2002-","nj","Jacques Cousteau","","",-5,1,1,"P"
132,"jac","jacbanut","Lower Bank",39.5937,74.5515,"Active","Feb 2002-","nj","Jacques Cousteau","","",-5,2,1,"P"
133,"jac","jacbawq","Lower Bank",39.5937,74.5515,"Active","Oct 1996-","nj","Jacques Cousteau","","",-5,1,1,"P"
134,"jac","jacncmet","Nacote Creek",39.535,74.4636,"Active","Oct 2002-","nj","Jacques Cousteau","R","3B00D112",-5,0,1,"P"
135,"jac","jacnenut","Chestnut Neck",39.5479,74.4608,"Active","Feb 2002-","nj","Jacques Cousteau","","",-5,2,1,"P"
136,"jac","jacnewq","Chestnut Neck",39.5479,74.4608,"Active","Aug 1996-","nj","Jacques Cousteau","R","3B03E386",-5,1,1,"P"
100,"job","job06wq","Station 6",17.934986,66.227933,"Inactive","Dec 1996-Dec 1998","pr","Jobos Bay","","",-4,1,3,"P"
101,"job","job09nut","Station 9",17.943022,66.238511,"Active","Jul 2002-","pr","Jobos Bay","","",-4,2,3,"P"
102,"job","job09wq","Station 9",17.943022,66.238511,"Active","Dec 1995-","pr","Jobos Bay","R","3B0424AC",-4,1,3,"P"
103,"job","job10nut","Station 10",17.938611,66.257736,"Active","Jul 2002-","pr","Jobos Bay","","",-4,2,3,"P"
104,"job","job10wq","Station 10",17.938611,66.257736,"Active","Feb 1996-","pr","Jobos Bay","","",-4,1,3,"P"
105,"job","job11wq","Station 11",17.944608,66.262028,"Inactive","Mar 1996-Dec 1998","pr","Jobos Bay","","",-4,1,3,"P"
106,"job","job18wq","Station 18",17.944433,66.231881,"Inactive","Oct 1998- Nov 1998","pr","Jobos Bay","","",-4,1,3,"P"
107,"job","job19nut","Station 19",17.942914,66.228825,"Active","Jul 2002-","pr","Jobos Bay","","",-4,2,3,"P"
108,"job","job19wq","Station 19",17.942914,66.228825,"Active","Apr 2002-","pr","Jobos Bay","","",-4,1,3,"P"
109,"job","job20nut","Station 20",17.930317,66.211472,"Active","Jul 2002-","pr","Jobos Bay","","",-4,2,3,"P"
110,"job","job20wq","Station 20",17.930317,66.211472,"Active","May 2002-","pr","Jobos Bay","R","3B0297EC",-4,1,3,"P"
111,"job","jobjbmet","Jobos Bay Weather",17.956483,66.2229333,"Active","Jan 2001-","pr","Jobos Bay","R","3B018394",-4,0,3,"P"
112,"kac","kacbcwq","Bear Cove",59.70567,151.1094,"Inactive","Jun 2002-Dec 2003","ak","Kachemak Bay","","",-9,1,7,"P"
113,"kac","kacdlwq","Homer Dolphin",59.60232,151.41,"Inactive","Oct 2002-Dec 2002","ak","Kachemak Bay","","",-9,1,7,"P"
114,"kac","kachdnut","Homer Deep",59.60201,151.40878,"Active","Feb 2002-","ak","Kachemak Bay","","",-9,2,7,"P"
115,"kac","kachdwq","Homer Dolphin Deep",59.60201,151.40878,"Active","Jan 2003-","ak","Kachemak Bay","R","3B00077A",-9,1,7,"P"
116,"kac","kachhnut","Homer Harbor",59.60342,151.41726,"Active","Feb 2002-","ak","Kachemak Bay","","",-9,2,7,"P"
117,"kac","kachomet","Homer",59.60093,151.4095,"Active","Jan 2002-","ak","Kachemak Bay","R","3B00140C",-9,0,7,"P"
118,"kac","kachowq","Homer",59.60232,151.41,"Inactive","Jul 2001-Nov 2002","ak","Kachemak Bay","","",-9,1,7,"P"
119,"kac","kachsnut","Homer Shallow",59.60201,151.40878,"Active","Feb 2002-","ak","Kachemak Bay","","",-9,2,7,"P"
120,"kac","kachswq","Homer Dolphin Surface",59.60201,151.40878,"Inactive","Feb 2004-Nov 2011","ak","Kachemak Bay","","",-9,1,7,"P"
121,"kac","kacpgwq","Port Graham",59.37053,151.89612,"Inactive","Jun 2002-Sep 2003","ak","Kachemak Bay","","",-9,1,7,"P"
122,"kac","kacsdnut","Seldovia Deep",59.44099,151.72096,"Active","Feb 2002-","ak","Kachemak Bay","","",-9,2,7,"P"
123,"kac","kacsdwq","Seldovia Deep",59.44099,151.72096,"Active","Jan 2004-","ak","Kachemak Bay","R","3B040240",-9,1,7,"P"
124,"kac","kacsewq","Seldovia",59.44099,151.72096,"Inactive","Aug 2001-Dec 2003","ak","Kachemak Bay","","",-9,1,7,"P"
125,"kac","kacssnut","Seldovia Shallow",59.44099,151.72096,"Active","Feb 2002-","ak","Kachemak Bay","","",-9,2,7,"P"
126,"kac","kacsswq","Seldovia Surface",59.44099,151.72096,"Active","Jan 2004-","ak","Kachemak Bay","","",-9,1,7,"P"
421,"kac","kacapmet","Anchor Point",59.77026,151.86756,"Active","Jan 2014 -","ak","Kachemak Bay","R","3B04C75E",-9,0,6,"S"
351,"kac","kach3wq","Homer Surface 3",59.60205,151.40942,"Active","Jun 2012 -","ak","Kachemak Bay","","",-9,1,6,"P"
358,"lks","lksolwq","Oliver Bridge",46.65685,92.20166,"Active","Jul 2012 -","wi","Lake Superior","R","HTML13",-6,1,5,"P"
359,"lks","lkspomet","Pokegama Bay",46.67236,92.135614,"Active","Aug 2013 -","wi","Lake Superior","R","3B048454",-6,0,5,"P"
361,"lks","lksblwq","Blatnik Bridge",46.748649,92.10027,"Active","Jul 2012 -","wi","Lake Superior","","",-6,1,5,"P"
362,"lks","lksbawq","Barker's Island",46.721772,92.06352,"Active","Jun 2012 -","wi","Lake Superior","R","HTML12",-6,1,5,"P"
374,"lks","lksbanut","Barker's Island",46.721772,92.06352,"Active","May 2012 -","wi","Lake Superior","","",-6,2,5,"P"
375,"lks","lksblnut","Blatnik Bridge",46.748649,92.10027,"Active","May 2012 -","wi","Lake Superior","","",-6,2,5,"P"
377,"lks","lksolnut","Oliver Bridge",46.65685,92.20166,"Active","May 2012 -","wi","Lake Superior","","",-6,2,5,"P"
383,"lks","lkspowq","Pokegama Bay",46.67236,92.135614,"Active","Oct 2013 -","wi","Lake Superior","","",-6,1,5,"P"
384,"lks","lksponut","Pokegama Bay",46.67236,92.135614,"Active","May 2013 -","wi","Lake Superior","","",-6,2,5,"P"
438,"mar","marscmet","Ship Channel",27.83811,97.05022,"Active","Sep 2015-","tx","Mission Aransas","R","3B05A042",-6,0,4,"S"
299,"mar","marscwq","Ship Channel",27.8383,97.0503,"Active","Aug 2007 -","tx","Mission Aransas","R","3B004AA2",-6,1,4,"P"
291,"mar","marcewq","Copano Bay East",28.1323,97.0344,"Active","Apr 2007-","tx","Mission Aransas","R","HTML1",-6,1,4,"P"
292,"mar","marabwq","Aransas Bay",27.9798,97.0287,"Active","Apr 2007-","tx","Mission Aransas","R","3B038660",-6,1,4,"P"
294,"mar","marmbwq","Mesquite Bay",28.1384,96.8285,"Active","Jan 2008-","tx","Mission Aransas","R","HTML2",-6,1,4,"P"
295,"mar","marcwwq","Copano Bay West",28.0841,97.2009,"Active","Jul 2007-","tx","Mission Aransas","R","HTML4",-6,1,4,"P"
296,"mar","marcemet","Copano East",28.1323,97.0344,"Active","Nov 2006-","tx","Mission Aransas","R","3B039516",-6,0,4,"P"
341,"mar","marmbnut","Mesquite Bay",28.1384,96.8285,"Active","Jan 2008 -","tx","Mission Aransas","","",-6,2,4,"P"
334,"mar","marabnut","Aransas Bay",27.9798,97.0287,"Active","Jun 2007 -","tx","Mission Aransas","","",-6,2,4,"P"
335,"mar","marcenut","Copano Bay East",28.1323,97.0344,"Active","Jun 2007 -","tx","Mission Aransas","","",-6,2,4,"P"
336,"mar","marcwnut","Copano Bay West",28.0841,97.2009,"Active","Jun 2007 -","tx","Mission Aransas","","",-6,2,4,"P"
337,"mar","marscnut","Ship Channel",27.8383,97.0503,"Active","Jun 2007 -","tx","Mission Aransas","","",-6,2,4,"P"
137,"nar","narncnut","Nag Creek",41.62485,71.324283,"Active","Mar 2002-","ri","Narragansett Bay","","",-5,2,0,"P"
138,"nar","narncwq","Nag Creek",41.62485,71.324283,"Active","Mar 2002-","ri","Narragansett Bay","","",-5,1,0,"P"
139,"nar","narpcmet","Potters Cove",41.637139,71.339386,"Active","Jan 2001-","ri","Narragansett Bay","R","3B0211F8",-5,0,0,"P"
140,"nar","narpcnut","Potters Cove",41.64055,71.340881,"Active","Mar 2002-","ri","Narragansett Bay","","",-5,2,0,"P"
141,"nar","narpcwq","Potters Cove",41.64055,71.340881,"Active","Dec 1995-","ri","Narragansett Bay","","",-5,1,0,"P"
142,"nar","nartbnut","T-Wharf Bottom",41.578361,71.321125,"Active","Mar 2002-","ri","Narragansett Bay","","",-5,2,0,"P"
143,"nar","nartbwq","T-Wharf Bottom",41.578361,71.321125,"Active","Jul 2002-","ri","Narragansett Bay","R","3B0335EE",-5,1,0,"P"
144,"nar","nartsnut","T-Wharf Surface",41.578361,71.321125,"Active","Mar 2002-","ri","Narragansett Bay","","",-5,2,0,"P"
145,"nar","nartswq","T-Wharf Surface",41.578361,71.321125,"Active","Jul 2002-","ri","Narragansett Bay","","",-5,1,0,"P"
146,"nar","nartwnut","T-Wharf",41.579217,71.321417,"Inactive","Mar 2002-Jun 2002","ri","Narragansett Bay","","",-5,2,0,"P"
147,"nar","nartwwq","T-Wharf",41.579217,71.321417,"Inactive","Sep 1996- Jul 2002","ri","Narragansett Bay","","",-5,1,0,"P"
148,"niw","niwcawq","Caledonia",33.45,79.1667,"Inactive","Jun 1995-Dec 1995","sc","North Inlet-Winyah Bay","","",-5,1,2,"P"
149,"niw","niwcbnut","Clambank",33.3338636,79.1930411,"Active","Jan 2002-","sc","North Inlet-Winyah Bay","","",-5,2,2,"P"
150,"niw","niwcbwq","Clambank",33.3338636,79.1930411,"Active","Aug 2001-","sc","North Inlet-Winyah Bay","","",-5,1,2,"P"
151,"niw","niwdcnut","Debidue Creek",33.3601486,79.1674572,"Active","Jan 2002-","sc","North Inlet-Winyah Bay","","",-5,2,2,"P"
152,"niw","niwdcwq","Debidue Creek",33.3601486,79.1674572,"Active","Mar 1998-","sc","North Inlet-Winyah Bay","R","3B049722",-5,1,2,"P"
153,"niw","niwolmet","Oyster Landing",33.3493511,79.1888819,"Active","Jan 2001-","sc","North Inlet-Winyah Bay","R","3B01F504",-5,0,2,"P"
154,"niw","niwolnut","Oyster Landing",33.3493511,79.1888819,"Active","Jan 2002-","sc","North Inlet-Winyah Bay","","",-5,2,2,"P"
155,"niw","niwolwq","Oyster Landing",33.3493511,79.1888819,"Active","Jan 1996-","sc","North Inlet-Winyah Bay","R","3B031302",-5,1,2,"P"
156,"niw","niwtanut","Thousand Acre",33.2991461,79.2560564,"Active","Jan 2002-","sc","North Inlet-Winyah Bay","","",-5,2,2,"P"
157,"niw","niwtawq","Thousand Acre",33.2991461,79.2560564,"Active","Jan 1995-","sc","North Inlet-Winyah Bay","","",-5,1,2,"P"
444,"niw","niwwswq","Winyah Bay Surface",33.309425,79.2887556,"Active","Jun 2016-","sc","North Inlet-Winyah Bay","R","3B002F44",-5,1,2,"S"
445,"niw","niwwbwq","Winyah Bay Bottom",33.309425,79.2887556,"Active","Jun 2016-","sc","North Inlet-Winyah Bay","R","3B003C32",-5,1,2,"S"
158,"noc","nocecnut","East Cribbing",33.9399,77.9411,"Active","Apr 2002-","nc","North Carolina","","",-5,2,2,"P"
159,"noc","nocecwq","East Cribbing",33.9399,77.9411,"Active","May 1994-","nc","North Carolina","","",-5,1,2,"P"
160,"noc","noclcnut","Loosin Creek",34.1722,77.8328,"Active","Apr 2002-","nc","North Carolina","","",-5,2,2,"P"
161,"noc","noclcwq","Loosin Creek",34.1722,77.8328,"Active","Feb 2002-","nc","North Carolina","","",-5,1,2,"P"
163,"noc","nocrcmet","Research Creek",34.1555,77.8509,"Active","Jan 2001-","nc","North Carolina","R","3B02028E",-5,0,2,"P"
164,"noc","nocrcnut","Research Creek",34.156,77.8499,"Active","Apr 2002-","nc","North Carolina","","",-5,2,2,"P"
165,"noc","nocrcwq","Research Creek",34.156,77.8499,"Active","May 1994-","nc","North Carolina","R","3B032698",-5,1,2,"P"
166,"noc","noczbnut","Zeke's Basin",33.9547,77.935,"Active","Apr 2002-","nc","North Carolina","","",-5,2,2,"P"
167,"noc","noczbwq","Zeke's Basin",33.9547,77.935,"Active","Mar 2002-","nc","North Carolina","R","3B04523C",-5,1,2,"P"
169,"owc","owcbrnut","Berlin Road",41.3483,82.5083,"Active","Mar 2002-","oh","Old Woman Creek","","",-5,2,5,"P"
170,"owc","owcbrwq","Berlin Road",41.3483,82.5083,"Active","Mar 2002-","oh","Old Woman Creek","","",-5,1,5,"P"
171,"owc","owcolnut","Lower Estuary",41.3819,82.5142,"Active","Apr 2002-","oh","Old Woman Creek","","",-5,2,5,"P"
172,"owc","owcolwq","Lower Estuary",41.3819,82.5142,"Active","Apr 2002-","oh","Old Woman Creek","R","3B02849A",-5,1,5,"P"
173,"owc","owcowmet","Old Woman Creek",41.37778,82.508056,"Active","May 2001-","oh","Old Woman Creek","R","3B017310",-5,0,5,"P"
174,"owc","owcsunut","State Route 2",41.3672,82.5072,"Inactive","Mar 2002-","oh","Old Woman Creek","","",-5,2,5,"P"
175,"owc","owcsuwq","State Route 2",41.3672,82.5072,"Inactive","May 1995-Aug 2007","oh","Old Woman Creek","","",-5,1,5,"P"
176,"owc","owcwmnut","State Route 6",41.3825,82.515,"Active","Mar 2002-","oh","Old Woman Creek","","",-5,2,5,"P"
177,"owc","owcwmwq","State Route 6",41.3825,82.515,"Active","May 1995-","oh","Old Woman Creek","R","3B001ADE",-5,1,5,"P"
301,"owc","owcdrwq","Darrow Road",41.364978,82.504739,"Active","Aug 2007-","oh","Old Woman Creek","R","3B0009A8",-5,1,5,"P"
312,"owc","owcdrnut","Darrow Road",41.364978,82.504739,"Active","Aug 2007 - ","oh","Old Woman Creek","","",-5,2,5,"P"
311,"pdb","pdbjewq","Joe Leary Estuary",48.518914,122.474928,"Active","Jul 2009 -","wa","Padilla Bay","","",-8,1,7,"P"
339,"pdb","pdbgdnut","Gong Deep",48.5575,122.5725,"Active","Jan 2007 -","wa","Padilla Bay","","",-8,2,7,"S"
346,"pdb","pdbjenut","Joe Leary Estuary",48.518914,122.474928,"Active","Oct 2009 -","wa","Padilla Bay","","",-8,2,7,"P"
178,"pdb","pdbbpnut","Ploeg Channel",48.556322,122.530894,"Active","Feb 2002-","wa","Padilla Bay","","",-8,2,7,"P"
179,"pdb","pdbbpwq","Ploeg Channel",48.556322,122.530894,"Active","Jul 2001-","wa","Padilla Bay","R","3B004470",-8,1,7,"P"
180,"pdb","pdbbynut","Bayview Channel",48.496139,122.502114,"Active","Feb 2002-","wa","Padilla Bay","","",-8,2,7,"P"
181,"pdb","pdbbywq","Bayview Channel",48.496139,122.502114,"Active","Sep 1995-","wa","Padilla Bay","R","3B041136",-8,1,7,"P"
182,"pdb","pdbgsnut","Gong Surface",48.5575,122.5725,"Active","Apr 2003-","wa","Padilla Bay","","",-8,2,7,"P"
183,"pdb","pdbgswq","Gong Surface",48.5575,122.5725,"Active","Mar 2003-","wa","Padilla Bay","","",-8,1,7,"P"
184,"pdb","pdbjlnut","Joe Leary Slough",48.518264,122.474189,"Inactive","Feb 2002-July 2009","wa","Padilla Bay","","",-8,2,7,"P"
185,"pdb","pdbjlwq","Joe Leary Slough",48.518264,122.474189,"Inactive","Jun 1995-July 2009","wa","Padilla Bay","","",-8,1,7,"P"
186,"pdb","pdbnnwq","No Name Slough",48.4695,122.4674,"Inactive","Aug 1996-Dec 1997","wa","Padilla Bay","","",-8,1,7,"P"
187,"pdb","pdbpfmet","Padilla Bay Farm",48.463847,122.469303,"Active","Jan 2001-","wa","Padilla Bay","R","3B005706",-8,0,7,"P"
188,"rkb","rkbbmwq","Big Marco Pass",25.979,81.7375,"Inactive","Jan 1997-Feb 1998","fl","Rookery Bay","","",-5,1,4,"P"
189,"rkb","rkbbrwq","Blackwater River",25.9678,81.5908,"Inactive","Feb 1998-Dec 1999","fl","Rookery Bay","","",-5,1,4,"P"
190,"rkb","rkbfbnut","Fakahatchee Bay",25.8922,81.477,"Active","Jan 2002-","fl","Rookery Bay","","",-5,2,4,"P"
191,"rkb","rkbfbwq","Fakahatchee Bay",25.8922,81.477,"Active","Jan 2002-","fl","Rookery Bay","","",-5,1,4,"P"
192,"rkb","rkbfunut","Faka Union Bay",25.9005,81.5159,"Active","Jan 2002-","fl","Rookery Bay","","",-5,2,4,"P"
193,"rkb","rkbfuwq","Faka Union Bay",25.9005,81.5159,"Active","Jan 2002-","fl","Rookery Bay","","",-5,1,4,"P"
194,"rkb","rkbhcmet","Henderson Creek",26.0249,81.7316,"Inactive","Sep 2001-Dec 2003","fl","Rookery Bay","","",-5,0,4,"P"
195,"rkb","rkblhnut","Lower Henderson Creek",26.0257,81.7332,"Active","Jan 2002-","fl","Rookery Bay","","",-5,2,4,"P"
196,"rkb","rkblhwq","Lower Henderson Creek",26.0257,81.7332,"Active","Jan 2001-","fl","Rookery Bay","R","3B02E17C",-5,1,4,"P"
197,"rkb","rkbmbnut","Middle Blackwater River",25.9343,81.5946,"Active","Jan 2002-","fl","Rookery Bay","","",-5,2,4,"P"
198,"rkb","rkbmbwq","Middle Blackwater River",25.9343,81.5946,"Active","Jan 2000-","fl","Rookery Bay","","",-5,1,4,"P"
199,"rkb","rkbuhmet","Upper Henderson Creek",26.050067,81.701717,"Active","Jan 2004-","fl","Rookery Bay","R","3B01D3E8",-5,0,4,"P"
200,"rkb","rkbuhwq","Upper Henderson Creek",26.049,81.7012,"Inactive","Nov 1996-Dec 2000","fl","Rookery Bay","","",-5,1,4,"P"
372,"rkb","rkbpbnut","Pumpkin Bay",25.9141,81.5404,"Active","Oct 2012 -","fl","Rookery Bay","","",-5,2,4,"S"
476,"rkb","rkbpbwq","Pumpkin Bay",25.9141,81.5404,"Active","Jul 2016-","fl","Rookery Bay","","",-5,1,4,"S"
201,"sap","sapbcwq","Barn Creek",31.4392,81.2786,"Inactive","May 1995-Dec 1997","ga","Sapelo Island","","",-5,1,2,"P"
202,"sap","sapcanut","Cabretta Creek",31.4437,81.2399,"Active","Aug 2004-","ga","Sapelo Island","","",-5,2,2,"P"
203,"sap","sapcawq","Cabretta Creek",31.4437,81.2399,"Active","Aug 2004-","ga","Sapelo Island","","",-5,1,2,"P"
205,"sap","sapdcnut","Dean Creek",31.3896,81.2789,"Active","May 2004-","ga","Sapelo Island","","",-5,2,2,"P"
206,"sap","sapdcwq","Dean Creek",31.3896,81.2789,"Active","May 2004-","ga","Sapelo Island","","",-5,1,2,"P"
207,"sap","sapfdnut","Flume Dock",31.4828,81.2675,"Inactive","Mar 2002-Aug 2004","ga","Sapelo Island","","",-5,2,2,"P"
208,"sap","sapfdwq","Flume Dock",31.4828,81.2675,"Inactive","Jan 1995-Dec 1998; Jun 2002-Aug 2004","ga","Sapelo Island","","",-5,1,2,"P"
210,"sap","saphdnut","Hunt Dock",31.4786,81.2731,"Active","Mar 2002-","ga","Sapelo Island","","",-5,2,2,"P"
211,"sap","saphdwq","Hunt Dock",31.4786,81.2731,"Active","Jul 1999-","ga","Sapelo Island","","",-5,1,2,"P"
212,"sap","sapldnut","Lower Duplin",31.417942,81.296047,"Active","Jan 2002-","ga","Sapelo Island","","",-5,2,2,"P"
213,"sap","sapldwq","Lower Duplin",31.417942,81.296047,"Active","Jan 1999-","ga","Sapelo Island","R","3B0376E4",-5,1,2,"P"
215,"sap","sapmlmet","Marsh Landing",31.4178,81.29535,"Active","Sep 2002-","ga","Sapelo Island","R","3B036592",-5,0,2,"P"
216,"sap","sapmlnut","Marsh Landing",31.4177,81.2961,"Inactive","Jan 2002-2004","ga","Sapelo Island","","",-5,2,2,"P"
217,"sap","sapmlwq","Marsh Landing",31.4177,81.2961,"Inactive","May 1995-Dec 1998; Jun 2002-May 2004","ga","Sapelo Island","","",-5,1,2,"P"
344,"sfb","sfbfmnut","First Mallard",38.1949,122.0328,"Active","May 2008 -","ca","San Francisco Bay","","",-8,2,6,"P"
345,"sfb","sfbsmnut","Second Mallard",38.1841,122.0136,"Active","May 2008 -","ca","San Francisco Bay","","",-8,2,6,"P"
364,"sfb","sfbccnut","China Camp",38.0012,122.4604,"Active","Jan 2006 -","ca","San Francisco Bay","","",-8,2,6,"P"
365,"sfb","sfbgcnut","Gallinas Creek",38.0159,122.5085,"Active","Jan 2006 -","ca","San Francisco Bay","","",-8,2,6,"P"
303,"sfb","sfbfmwq","First Mallard",38.1949,122.0328,"Active","May 2008-","ca","San Francisco Bay","R","3B04E1B2",-8,1,6,"P"
304,"sfb","sfbsmwq","Second Mallard",38.1841,122.0136,"Active","May 2008-","ca","San Francisco Bay","R","3B0500BA",-8,1,6,"P"
305,"sfb","sfbgcwq","Gallinas Creek",38.0159,122.5085,"Active","Dec 2005-","ca","San Francisco Bay","R","3B0513CC",-8,1,6,"P"
289,"sfb","sfbrrmet","Rush Ranch",38.2004,122.0265,"Active","Aug 2006-","ca","San Francisco Bay","R","3B016066",-8,0,6,"P"
290,"sfb","sfbccwq","China Camp",38.0012,122.4604,"Active","Mar 2005-","ca","San Francisco Bay","R","3B02741E",-8,1,6,"P"
348,"sos","sosecwq","Elliot Creek",43.296501,124.310729,"Active","May 2012 -","or","South Slough","R","3B0437DA",-8,1,6,"P"
475,"sos","sostcmet","Tom's Creek",43.279129,124.318367,"Active","Oct 2016-","or","South Slough","R","3B0032E0",-8,0,6,"P"
219,"sos","sosbhnut","Boathouse",43.3501,124.3286,"Active","Mar 2003-","or","South Slough","","",-8,2,7,"P"
220,"sos","soschnut","Charleston Bridge",43.3377,124.320533,"Active","Jun 2002-","or","South Slough","","",-8,2,7,"P"
221,"sos","soschwq","Charleston Bridge",43.3377,124.320533,"Active","Apr 2002-","or","South Slough","R","3B002196",-8,1,7,"P"
222,"sos","soscmmet","Charleston Met. Station",43.34505,124.328733,"Inactive","Aug 2001-May 2015","or","South Slough","","3B0032E0",-8,0,7,"P"
223,"sos","soscsnut","Charleston Bridge Surface",43.3451,124.3287,"Inactive","Nov 2002-July 2003","or","South Slough","","",-8,2,7,"S"
224,"sos","sossewq","Sengstacken Arm",43.289683,124.302617,"Inactive","Apr 1995-Jun 2012","or","South Slough","","",-8,1,7,"P"
225,"sos","sosvanut","Valino Island",43.317217,124.321633,"Active","Jun 2002-","or","South Slough","","",-8,2,7,"P"
226,"sos","sosvawq","Valino Island",43.317217,124.321633,"Active","Jun 1999-","or","South Slough","R","3B03F0F0",-8,1,7,"P"
227,"sos","soswinut","Winchester Arm",43.27615,124.3197528,"Active","Jun 2002-","or","South Slough","","",-8,2,7,"P"
228,"sos","soswiwq","Winchester Arm",43.282417,124.320317,"Active","Apr 1995-","or","South Slough","R","3B04414A",-8,1,7,"P"
229,"tjr","tjrbrwq","Boca Rio",32.5595,117.1288,"Active","Dec 2004-","ca","Tijuana River","","",-8,1,6,"P"
230,"tjr","tjrhpnut","Helicopter Pad",32.55874,117.11926,"Inactive","Sep 2002-Sep 2002","ca","Tijuana River","","",-8,2,6,"S"
231,"tjr","tjrmmnut","Model Marsh",32.5478,117.123,"Inactive","Sep 2002-July 2008","ca","Tijuana River","","",-8,2,6,"P"
232,"tjr","tjrmmwq","Model Marsh",32.5478,117.123,"Inactive","Oct 2000-Jan 2008","ca","Tijuana River","","",-8,1,6,"P"
233,"tjr","tjrosnut","Oneonta Slough",32.56829,117.13127,"Active","Sep 2002-","ca","Tijuana River","","",-8,2,6,"P"
234,"tjr","tjroswq","Oneonta Slough",32.56829,117.13127,"Active","Jan 1996-","ca","Tijuana River","R","3B0252F2",-8,1,6,"P"
235,"tjr","tjrrcnut","River Channel",32.5578,117.1061,"Inactive","Sep 2002-Nov 2005","ca","Tijuana River","","",-8,2,6,"P"
236,"tjr","tjrrcwq","River Channel",32.5578,117.1061,"Inactive","Aug 2002-Nov 2004","ca","Tijuana River","","",-8,1,6,"P"
237,"tjr","tjrrmnut","River Mouth",32.5537,117.1262,"Inactive","Sep 2002-Dec 2002","ca","Tijuana River","","",-8,2,6,"S"
238,"tjr","tjrtlmet","Tidal Linkage",32.5745,117.127,"Active","Jan 2001-","ca","Tijuana River","R","3B01468A",-8,0,6,"P"
239,"tjr","tjrtlnut","Tidal Linkage",32.5744,117.1272,"Inactive","Sep 2002-Dec 2007","ca","Tijuana River","","",-8,2,6,"P"
240,"tjr","tjrtlwq","Tidal Linkage",32.5744,117.1272,"Inactive","May 1997-Oct 2007","ca","Tijuana River","","",-8,1,6,"P"
419,"tjr","tjrprwq","Pond Eleven Restored",32.59612,117.11822,"Active","Jan 2012 -","ca","Tijuana River","","",-8,1,6,"P"
420,"tjr","tjrprnut","Pond Eleven Restored",32.59612,117.11822,"Active","Jan 2012 -","ca","Tijuana River","","",-8,2,6,"P"
300,"tjr","tjrsbwq","South Bay",32.600136,117.115692,"Active","Jan 2008-","ca","Tijuana River","","",-8,1,6,"P"
298,"tjr","tjrbrnut","Boca Rio",32.5595,117.1288,"Active","Dec 2004-","ca","Tijuana River","","",-8,2,6,"P"
307,"tjr","tjrpewq","Pond Eleven",32.60098,117.11624,"Inactive","Jul 2008 - Sept 2010","ca","Tijuana River","","",-8,1,6,"P"
342,"tjr","tjrsbnut","South Bay",32.600136,117.115692,"Active","Jan 2008 -","ca","Tijuana River","","",-8,2,6,"P"
343,"tjr","tjrpenut","Pond Eleven",32.60098,117.11624,"Inactive","Jul 2008-Dec 2011","ca","Tijuana River","","",-8,2,6,"P"
297,"wel","welsmnut","Skinner Mill",43.344711,70.549217,"Active","Apr 2004-","me","Wells","","",-5,2,0,"P"
241,"wel","weldnwq","Drake Island Downstream",43.3289,70.5603,"Inactive","Apr 1996-Dec 1997","me","Wells","","",-5,1,0,"P"
242,"wel","welhtnut","Head of Tide",43.298347,70.587094,"Active","May 2002-","me","Wells","","",-5,2,0,"P"
243,"wel","welhtwq","Head of Tide",43.298347,70.587094,"Active","Apr 1995-","me","Wells","","",-5,1,0,"P"
244,"wel","welinnut","Inlet",43.320089,70.563442,"Active","May 2002-","me","Wells","","",-5,2,0,"P"
245,"wel","welinwq","Inlet",43.320089,70.563442,"Active","May 1995-","me","Wells","R","3B04A2B8",-5,1,0,"P"
246,"wel","wellfmet","Laudholm Farm",43.337375,70.549444,"Active","Jan 2001-","me","Wells","R","3B024184",-5,0,0,"P"
247,"wel","wellmnut","Little River Mouth",43.340153,70.540603,"Active","May 2002-","me","Wells","","",-5,2,0,"P"
248,"wel","wellmwq","Little River Mouth",43.340153,70.540603,"Active","Apr 2002-","me","Wells","","",-5,1,0,"P"
249,"wel","welmlnut","Mile Road",43.305,70.5764,"Inactive","May 2002-2003","me","Wells","","",-5,2,0,"P"
250,"wel","welmlwq","Mile Road",43.305,70.5764,"Inactive","Mar 2002-Dec 2003","me","Wells","","",-5,1,0,"P"
251,"wel","welsmwq","Skinner Mill",43.344711,70.549217,"Active","Apr 2004-","me","Wells","R","3B035008",-5,1,0,"P"
252,"wel","welupwq","Drake Island Upstream",43.3306,70.5572,"Inactive","Apr 1996-Dec 1997","me","Wells","","",-5,1,0,"P"
253,"wkb","wkbfrnut","Fish River",30.4162,87.8228,"Active","Feb 2002-","al","Weeks Bay","","",-6,2,4,"P"
254,"wkb","wkbfrwq","Fish River",30.4162,87.8228,"Active","Oct 1995-","al","Weeks Bay","R","3B02B100",-6,1,4,"P"
255,"wkb","wkbmbnut","Middle Bay",30.3961,87.8335,"Active","Feb 2002-","al","Weeks Bay","","",-6,2,4,"P"
256,"wkb","wkbmbwq","Middle Bay",30.3961,87.8335,"Active","May 2003-","al","Weeks Bay","","",-6,1,4,"P"
257,"wkb","wkbmrnut","Magnolia River",30.39,87.8177,"Active","Feb 2002-","al","Weeks Bay","","",-6,2,4,"P"
258,"wkb","wkbmrwq","Magnolia River",30.39,87.8177,"Active","May 2003-","al","Weeks Bay","","",-6,1,4,"P"
259,"wkb","wkbwbmet","Weeks Bay",30.4148,87.826,"Inactive","Jan 2001-Jan 2008","al","Weeks Bay","","",-6,0,4,"P"
260,"wkb","wkbwbnut","Weeks Bay",30.3808,87.832,"Active","Feb 2002-","al","Weeks Bay","","",-6,2,4,"P"
261,"wkb","wkbwbwq","Weeks Bay",30.3808,87.832,"Active","Oct 1995-","al","Weeks Bay","","",-6,1,4,"P"
262,"wkb","wkbwsnut","Weather Station",30.41481,87.826,"Inactive","Nov 2002-Dec 2004","al","Weeks Bay","","",-6,2,4,"P"
306,"wkb","wkbshmet","Safe Harbor Met Station",30.4212,87.8285,"Active","Jan 2008-","al","Weeks Bay","R","3B01A578",-6,0,4,"P"
263,"wqb","wqbcbwq","Central Basin",41.5655,70.5211,"Inactive","Oct 1995-Dec 1998","ma","Waquoit Bay","","",-5,1,0,"P"
264,"wqb","wqbchmet","Carriage House",41.5817,70.5251,"Active","Jan 2002-","ma","Waquoit Bay","R","3B022462",-5,0,0,"P"
265,"wqb","wqbcrnut","Childs River",41.5798,70.5309,"Active","Jul 2002-","ma","Waquoit Bay","","",-5,2,0,"P"
266,"wqb","wqbcrwq","Childs River",41.5798,70.5309,"Active","May 2002-","ma","Waquoit Bay","","",-5,1,0,"P"
267,"wqb","wqbctwq","Adjacent to Central Basin",41.5655,70.5211,"Inactive","Sep 1998-Oct 1998","ma","Waquoit Bay","","",-5,1,0,"P"
268,"wqb","wqbmhnut","Menauhant",41.5526,70.5485,"Active","Jul 2002-","ma","Waquoit Bay","","",-5,2,0,"P"
269,"wqb","wqbmhwq","Menauhant",41.5526,70.5485,"Active","Mar 2001-","ma","Waquoit Bay","R","3B030074",-5,1,0,"P"
270,"wqb","wqbmpnut","Metoxit Point",41.5689,70.5216,"Active","Jul 2002-","ma","Waquoit Bay","","",-5,2,0,"P"
271,"wqb","wqbmpwq","Metoxit Point",41.5689,70.5216,"Active","Nov 1998-","ma","Waquoit Bay","","",-5,1,0,"P"
272,"wqb","wqbnbwq","North Basin",41.5788,70.5237,"Inactive","Oct 1995-Dec 1997","ma","Waquoit Bay","","",-5,1,0,"P"
273,"wqb","wqbnswq","North Basin Surface",41.5788,70.5237,"Inactive","Jul 1996-Jul 1996; Jul 1997-Dec 1997","ma","Waquoit Bay","","",-5,1,0,"P"
274,"wqb","wqbslnut","Sage Lot",41.5542,70.5102,"Active","Jul 2002-","ma","Waquoit Bay","","",-5,2,0,"P"
275,"wqb","wqbslwq","Sage Lot",41.5542,70.5102,"Active","May 2002-","ma","Waquoit Bay","","",-5,1,0,"P"
